,City,Country,Max Temp,Humidity,Cloudiness,Wind Speed,Latitude,Longitude,Date
0,bluff,AU,81.6,29,0,10.47,-23.58,149.07,2018-09-11 05:24:19.000000+00:00 (UTC)
1,ushuaia,AR,42.8,75,20,18.34,-54.81,-68.31,2018-09-11 04:00:00.000000+00:00 (UTC)
2,torbay,CA,50.0,81,20,9.17,47.66,-52.73,2018-09-11 05:00:00.000000+00:00 (UTC)
3,tuatapere,NZ,48.66,100,8,7.11,-46.13,167.69,2018-09-11 05:23:27.000000+00:00 (UTC)
4,kavieng,PG,80.88,100,64,3.42,-2.57,150.8,2018-09-11 05:24:22.000000+00:00 (UTC)
5,puerto ayora,EC,70.26,100,0,10.8,-0.74,-90.35,2018-09-11 05:24:22.000000+00:00 (UTC)
6,busselton,AU,58.56,100,80,13.82,-33.64,115.35,2018-09-11 05:23:06.000000+00:00 (UTC)
7,kota kinabalu,MY,91.4,66,75,3.36,5.98,116.07,2018-09-11 05:00:00.000000+00:00 (UTC)
8,sarangani,PH,83.58,97,12,18.07,5.4,125.46,2018-09-11 05:24:02.000000+00:00 (UTC)
9,souillac,FR,57.2,93,40,3.36,45.6,-0.6,2018-09-11 05:00:00.000000+00:00 (UTC)
10,yellowknife,CA,39.2,64,75,12.75,62.45,-114.38,2018-09-11 05:00:00.000000+00:00 (UTC)
11,xichang,CN,55.59,100,92,1.74,27.88,102.25,2018-09-11 05:24:24.000000+00:00 (UTC)
12,hobart,AU,66.2,45,75,16.11,-42.88,147.33,2018-09-11 05:00:00.000000+00:00 (UTC)
13,chara,GR,66.2,63,0,5.82,39.42,22.43,2018-09-11 04:50:00.000000+00:00 (UTC)
14,mar del plata,AR,51.54,55,12,16.28,-46.43,-67.52,2018-09-11 05:24:26.000000+00:00 (UTC)
15,saint anthony,US,66.02,5,1,11.41,43.97,-111.68,2018-09-11 04:56:00.000000+00:00 (UTC)
16,hilo,US,80.96,74,40,11.41,19.71,-155.08,2018-09-11 04:56:00.000000+00:00 (UTC)
17,nova esperanca,BR,71.25,93,88,2.64,4.44,-61.12,2018-09-11 05:24:28.000000+00:00 (UTC)
18,longyearbyen,NO,37.4,86,40,16.11,78.22,15.63,2018-09-11 04:50:00.000000+00:00 (UTC)
19,mataura,NZ,48.3,73,8,7.0,-46.19,168.86,2018-09-11 05:22:29.000000+00:00 (UTC)
20,ribeira grande,PT,74.58,98,24,11.03,38.52,-28.7,2018-09-11 05:22:46.000000+00:00 (UTC)
21,bambous virieux,MU,69.8,88,40,9.46,-20.34,57.76,2018-09-11 04:00:00.000000+00:00 (UTC)
22,yining,CN,79.08,58,20,3.42,29.04,114.56,2018-09-11 05:24:30.000000+00:00 (UTC)
23,portland,US,64.04,77,75,3.36,45.52,-122.67,2018-09-11 04:56:00.000000+00:00 (UTC)
24,jieshi,CN,85.83,83,24,4.88,22.82,115.83,2018-09-11 05:24:32.000000+00:00 (UTC)
25,marawi,PH,76.92,83,64,4.21,8.0,124.29,2018-09-11 05:24:32.000000+00:00 (UTC)
26,arraial do cabo,BR,66.84,100,48,1.74,-22.97,-42.02,2018-09-11 05:24:33.000000+00:00 (UTC)
27,moron,VE,65.94,92,0,1.52,10.49,-68.2,2018-09-11 05:24:33.000000+00:00 (UTC)
28,ponta do sol,BR,59.19,63,0,4.21,-20.63,-46.0,2018-09-11 05:22:04.000000+00:00 (UTC)
29,sao gabriel da cachoeira,BR,71.34,93,8,2.3,-0.13,-67.09,2018-09-11 05:22:59.000000+00:00 (UTC)
30,atuona,PF,78.54,100,0,16.06,-9.8,-139.03,2018-09-11 05:24:34.000000+00:00 (UTC)
31,kapaa,US,80.06,87,40,9.17,22.08,-159.32,2018-09-11 04:56:00.000000+00:00 (UTC)
32,esperance,TT,78.8,88,20,4.21,10.24,-61.45,2018-09-11 04:00:00.000000+00:00 (UTC)
33,talnakh,RU,37.68,91,88,18.07,69.49,88.39,2018-09-11 05:24:35.000000+00:00 (UTC)
34,albany,US,62.06,90,90,5.55,42.65,-73.75,2018-09-11 04:54:00.000000+00:00 (UTC)
35,bredasdorp,ZA,48.2,93,0,4.7,-34.53,20.04,2018-09-11 05:00:00.000000+00:00 (UTC)
36,avarua,CK,75.2,83,75,3.36,-21.21,-159.78,2018-09-11 05:00:00.000000+00:00 (UTC)
37,nouadhibou,MR,69.8,77,0,20.8,20.93,-17.03,2018-09-11 05:00:00.000000+00:00 (UTC)
38,trat,TH,87.8,74,20,6.93,12.25,102.51,2018-09-11 05:00:00.000000+00:00 (UTC)
39,chiredzi,ZW,62.61,66,0,4.43,-21.05,31.67,2018-09-11 05:24:38.000000+00:00 (UTC)
40,lorengau,PG,79.62,100,92,4.76,-2.02,147.27,2018-09-11 05:22:26.000000+00:00 (UTC)
41,qaanaaq,GL,28.77,100,12,0.74,77.48,-69.36,2018-09-11 05:24:39.000000+00:00 (UTC)
42,butaritari,KI,85.56,100,68,11.7,3.07,172.79,2018-09-11 05:24:40.000000+00:00 (UTC)
43,torres,BR,58.29,100,92,5.99,-29.34,-49.73,2018-09-11 05:24:40.000000+00:00 (UTC)
44,chokurdakh,RU,57.66,60,8,4.43,70.62,147.9,2018-09-11 05:24:41.000000+00:00 (UTC)
45,new norfolk,AU,66.2,45,75,16.11,-42.78,147.06,2018-09-11 05:00:00.000000+00:00 (UTC)
46,cape town,ZA,42.8,93,0,4.7,-33.93,18.42,2018-09-11 05:00:00.000000+00:00 (UTC)
47,najran,SA,73.4,20,40,4.7,17.54,44.22,2018-09-11 04:00:00.000000+00:00 (UTC)
48,punta arenas,CL,39.2,86,0,11.41,-53.16,-70.91,2018-09-11 04:00:00.000000+00:00 (UTC)
49,seminole,US,66.38,86,1,3.36,32.72,-102.64,2018-09-11 04:55:00.000000+00:00 (UTC)
50,protivin,US,59.0,82,1,5.82,43.22,-92.09,2018-09-11 05:15:00.000000+00:00 (UTC)
51,upernavik,GL,36.96,100,8,6.67,72.79,-56.15,2018-09-11 05:24:44.000000+00:00 (UTC)
52,katsuura,JP,77.0,65,75,13.87,33.93,134.5,2018-09-11 04:00:00.000000+00:00 (UTC)
53,praia,BR,64.4,63,0,6.93,-20.25,-43.81,2018-09-11 04:00:00.000000+00:00 (UTC)
54,seoul,KR,78.8,38,0,8.05,37.57,126.98,2018-09-11 05:00:00.000000+00:00 (UTC)
55,saint-pierre,FR,53.6,81,0,3.36,48.95,4.24,2018-09-11 05:00:00.000000+00:00 (UTC)
56,port alfred,ZA,60.54,95,0,5.32,-33.59,26.89,2018-09-11 05:22:52.000000+00:00 (UTC)
57,mitsamiouli,KM,75.2,69,20,3.36,-11.38,43.28,2018-09-11 04:00:00.000000+00:00 (UTC)
58,mangan,IN,47.76,98,92,1.41,27.5,88.54,2018-09-11 05:24:47.000000+00:00 (UTC)
59,tazovskiy,RU,41.28,81,8,8.68,67.47,78.7,2018-09-11 05:24:47.000000+00:00 (UTC)
60,sorong,ID,82.41,100,48,15.61,-0.86,131.25,2018-09-11 05:24:48.000000+00:00 (UTC)
61,salinopolis,BR,80.16,99,0,12.82,-0.61,-47.36,2018-09-11 05:24:48.000000+00:00 (UTC)
62,hazorasp,UZ,69.8,32,0,11.41,41.32,61.08,2018-09-11 04:30:00.000000+00:00 (UTC)
63,hermanus,ZA,39.66,91,0,2.86,-34.42,19.24,2018-09-11 05:24:49.000000+00:00 (UTC)
64,vardo,US,66.2,90,90,3.36,39.62,-77.74,2018-09-11 05:06:00.000000+00:00 (UTC)
65,saint-philippe,CA,55.4,93,90,8.05,45.36,-73.48,2018-09-11 05:18:00.000000+00:00 (UTC)
66,saldanha,PT,49.74,93,0,3.98,41.42,-6.55,2018-09-11 05:24:51.000000+00:00 (UTC)
67,ahipara,NZ,56.4,92,68,13.04,-35.17,173.16,2018-09-11 05:23:02.000000+00:00 (UTC)
68,vao,EE,60.27,74,80,7.0,59.1,26.19,2018-09-11 05:24:51.000000+00:00 (UTC)
69,kodiak,US,60.98,100,1,8.23,39.95,-94.76,2018-09-11 04:53:00.000000+00:00 (UTC)
70,filingue,NE,70.89,96,56,3.31,14.35,3.32,2018-09-11 05:24:52.000000+00:00 (UTC)
71,jamestown,AU,74.85,21,8,24.34,-33.21,138.6,2018-09-11 05:24:53.000000+00:00 (UTC)
72,pitimbu,BR,71.6,100,90,10.29,-7.47,-34.81,2018-09-11 04:00:00.000000+00:00 (UTC)
73,douglas,US,77.0,38,75,3.36,31.34,-109.55,2018-09-11 04:56:00.000000+00:00 (UTC)
74,pingliang,CN,69.63,66,12,3.98,35.54,106.68,2018-09-11 05:24:55.000000+00:00 (UTC)
75,villa carlos paz,AR,57.2,76,0,6.93,-31.42,-64.5,2018-09-11 04:00:00.000000+00:00 (UTC)
76,verkhnevilyuysk,RU,46.23,59,0,3.42,63.45,120.31,2018-09-11 05:24:55.000000+00:00 (UTC)
77,hithadhoo,MV,84.21,100,64,11.25,-0.6,73.08,2018-09-11 05:24:56.000000+00:00 (UTC)
78,tiksi,RU,37.32,92,48,16.06,71.64,128.87,2018-09-11 05:22:40.000000+00:00 (UTC)
79,red wing,US,68.0,63,75,8.34,44.56,-92.53,2018-09-11 05:15:00.000000+00:00 (UTC)
80,garowe,SO,87.36,44,0,17.18,8.41,48.48,2018-09-11 05:24:44.000000+00:00 (UTC)
81,prince rupert,CA,53.6,93,90,3.36,54.32,-130.32,2018-09-11 05:12:00.000000+00:00 (UTC)
82,komsomolskiy,RU,40.83,100,56,11.36,67.55,63.78,2018-09-11 05:24:58.000000+00:00 (UTC)
83,klaksvik,FO,48.2,100,88,4.7,62.23,-6.59,2018-09-11 04:50:00.000000+00:00 (UTC)
84,luleburgaz,TR,64.4,77,0,1.12,41.4,27.36,2018-09-11 04:50:00.000000+00:00 (UTC)
85,nemuro,JP,62.6,63,20,6.93,43.32,145.57,2018-09-11 04:00:00.000000+00:00 (UTC)
86,balikpapan,ID,87.8,70,20,11.41,-1.24,116.86,2018-09-11 04:30:00.000000+00:00 (UTC)
87,turiacu,BR,75.03,93,8,2.3,-5.01,-63.0,2018-09-11 05:25:01.000000+00:00 (UTC)
88,buala,SB,81.96,89,68,11.14,-8.15,159.59,2018-09-11 05:25:02.000000+00:00 (UTC)
89,faya,SA,68.0,30,0,4.65,18.39,42.45,2018-09-11 04:00:00.000000+00:00 (UTC)
90,vaini,IN,78.45,87,8,3.65,15.34,74.49,2018-09-11 05:25:03.000000+00:00 (UTC)
91,bonthe,SL,73.41,100,88,1.63,7.53,-12.5,2018-09-11 05:25:03.000000+00:00 (UTC)
92,yulara,AU,91.4,6,0,12.75,-25.24,130.99,2018-09-11 05:00:00.000000+00:00 (UTC)
93,haines junction,CA,38.94,63,8,2.98,60.75,-137.51,2018-09-11 05:25:05.000000+00:00 (UTC)
94,lebu,ET,53.6,93,75,10.29,8.96,38.73,2018-09-11 04:00:00.000000+00:00 (UTC)
95,altamira,BR,74.13,95,0,2.3,-3.2,-52.21,2018-09-11 05:25:06.000000+00:00 (UTC)
96,west wendover,US,73.94,4,1,6.93,40.74,-114.07,2018-09-11 04:56:00.000000+00:00 (UTC)
97,tual,ID,81.78,95,0,15.5,-5.67,132.75,2018-09-11 05:25:07.000000+00:00 (UTC)
98,lagoa,PT,73.4,73,0,5.82,37.14,-8.45,2018-09-11 05:00:00.000000+00:00 (UTC)
99,cassilandia,BR,65.76,51,0,4.32,-19.11,-51.73,2018-09-11 05:25:08.000000+00:00 (UTC)
100,sao joao da barra,BR,70.26,100,80,5.44,-21.64,-41.05,2018-09-11 05:25:09.000000+00:00 (UTC)
101,mujiayingzi,CN,66.66,63,20,13.27,42.12,118.78,2018-09-11 05:25:10.000000+00:00 (UTC)
102,wufeng,TW,91.4,70,75,5.82,24.63,121.12,2018-09-11 04:30:00.000000+00:00 (UTC)
103,honiara,SB,84.2,79,20,8.05,-9.43,159.96,2018-09-11 05:00:00.000000+00:00 (UTC)
104,naze,NG,70.17,100,92,4.43,5.43,7.07,2018-09-11 05:25:11.000000+00:00 (UTC)
105,itaituba,BR,73.59,96,0,1.86,-4.26,-55.99,2018-09-11 05:25:12.000000+00:00 (UTC)
106,salinas,US,60.8,83,1,11.41,36.67,-121.66,2018-09-11 04:55:00.000000+00:00 (UTC)
107,moose factory,CA,59.0,62,40,13.87,51.26,-80.61,2018-09-11 05:00:00.000000+00:00 (UTC)
108,constantine,DZ,66.2,82,0,5.82,36.36,6.61,2018-09-11 05:00:00.000000+00:00 (UTC)
109,constitucion,MX,52.17,95,24,2.42,23.99,-104.67,2018-09-11 05:24:14.000000+00:00 (UTC)
110,yatou,CM,75.2,100,75,2.24,3.63,9.81,2018-09-11 04:00:00.000000+00:00 (UTC)
111,severo-kurilsk,RU,51.9,91,88,2.86,50.68,156.12,2018-09-11 05:25:15.000000+00:00 (UTC)
112,makiwalo,PH,84.39,99,36,10.13,12.51,124.7,2018-09-11 05:25:15.000000+00:00 (UTC)
113,trinidad,UY,51.0,87,0,11.03,-33.52,-56.9,2018-09-11 05:25:15.000000+00:00 (UTC)
114,grindavik,IS,48.2,93,75,6.93,63.84,-22.43,2018-09-11 04:30:00.000000+00:00 (UTC)
115,cayenne,GF,77.0,100,0,2.24,4.94,-52.33,2018-09-11 04:30:00.000000+00:00 (UTC)
116,assiniboia,CA,68.01,38,92,13.15,49.63,-105.99,2018-09-11 05:20:40.000000+00:00 (UTC)
117,charters towers,AU,76.29,51,0,13.82,-20.07,146.27,2018-09-11 05:25:17.000000+00:00 (UTC)
118,araouane,ML,76.65,83,8,8.9,18.9,-3.53,2018-09-11 05:23:56.000000+00:00 (UTC)
119,bethel,US,59.0,62,1,4.7,60.79,-161.76,2018-09-11 04:53:00.000000+00:00 (UTC)
120,puerto carreno,CO,68.28,93,48,2.53,6.19,-67.49,2018-09-11 05:25:19.000000+00:00 (UTC)
121,sawakin,SD,87.8,62,40,12.75,19.1,37.33,2018-09-11 05:00:00.000000+00:00 (UTC)
122,kayes,ML,73.68,98,88,5.77,14.44,-11.44,2018-09-11 05:25:19.000000+00:00 (UTC)
123,dikson,RU,36.24,100,76,15.05,73.51,80.55,2018-09-11 05:25:20.000000+00:00 (UTC)
124,port hedland,AU,95.0,23,0,12.75,-20.31,118.58,2018-09-11 05:00:00.000000+00:00 (UTC)
125,tobol,SE,53.6,93,20,9.17,59.83,12.54,2018-09-11 04:50:00.000000+00:00 (UTC)
126,norman wells,CA,32.0,70,40,8.05,65.28,-126.83,2018-09-11 05:00:00.000000+00:00 (UTC)
127,nishihara,JP,75.2,66,75,9.17,35.74,139.53,2018-09-11 04:56:00.000000+00:00 (UTC)
128,sayyan,YE,78.45,16,100,6.78,15.17,44.32,2018-09-11 05:25:22.000000+00:00 (UTC)
129,luderitz,NA,51.81,87,8,3.53,-26.65,15.16,2018-09-11 05:25:23.000000+00:00 (UTC)
130,east london,ZA,51.8,71,0,5.82,-33.02,27.91,2018-09-11 05:16:00.000000+00:00 (UTC)
131,xianyang,CN,82.4,39,0,6.71,34.31,108.72,2018-09-11 04:00:00.000000+00:00 (UTC)
132,victoria,BN,89.6,79,75,4.7,5.28,115.24,2018-09-11 05:00:00.000000+00:00 (UTC)
133,clyde river,CA,32.0,100,90,5.82,70.47,-68.59,2018-09-11 05:04:00.000000+00:00 (UTC)
134,narsaq,GL,41.0,70,44,13.87,60.91,-46.05,2018-09-11 04:50:00.000000+00:00 (UTC)
135,lazaro cardenas,MX,61.44,56,0,4.43,28.39,-105.62,2018-09-11 05:25:27.000000+00:00 (UTC)
136,sitka,US,64.23,80,0,12.03,37.17,-99.65,2018-09-11 05:22:37.000000+00:00 (UTC)
137,rorvik,NO,53.6,93,40,6.93,64.86,11.24,2018-09-11 04:50:00.000000+00:00 (UTC)
138,ladario,PT,53.88,80,0,3.42,40.7,-7.74,2018-09-11 05:25:28.000000+00:00 (UTC)
139,mossendjo,CG,68.37,98,92,2.86,-2.95,12.72,2018-09-11 05:25:29.000000+00:00 (UTC)
140,atambua,ID,87.45,67,0,8.01,-9.11,124.89,2018-09-11 05:22:56.000000+00:00 (UTC)
141,kindia,GN,69.45,98,88,2.75,10.05,-12.86,2018-09-11 05:25:30.000000+00:00 (UTC)
142,kontagora,NG,69.09,98,88,3.98,10.4,5.47,2018-09-11 05:25:30.000000+00:00 (UTC)
143,mackay,CA,46.4,93,90,4.7,53.65,-115.58,2018-09-11 05:08:00.000000+00:00 (UTC)
144,bafoulabe,ML,71.61,100,92,3.65,13.81,-10.83,2018-09-11 05:25:32.000000+00:00 (UTC)
145,mahebourg,MU,69.8,88,40,9.46,-20.41,57.7,2018-09-11 04:00:00.000000+00:00 (UTC)
146,carmelo,UY,57.2,82,0,12.75,-34.0,-58.28,2018-09-11 04:00:00.000000+00:00 (UTC)
147,umm lajj,SA,85.92,77,0,7.34,25.02,37.27,2018-09-11 05:25:33.000000+00:00 (UTC)
148,iqaluit,CA,33.8,86,75,9.17,63.75,-68.52,2018-09-11 05:00:00.000000+00:00 (UTC)
149,thompson,CA,39.2,86,90,2.24,55.74,-97.86,2018-09-11 05:00:00.000000+00:00 (UTC)
150,tasiilaq,GL,39.2,93,80,2.24,65.61,-37.64,2018-09-11 04:50:00.000000+00:00 (UTC)
151,nosy varika,MG,74.76,88,0,7.78,-20.58,48.53,2018-09-11 05:25:36.000000+00:00 (UTC)
152,lahore,PK,84.2,66,44,5.21,31.52,74.33,2018-09-11 04:30:00.000000+00:00 (UTC)
153,leningradskiy,RU,51.99,72,92,12.71,69.38,178.42,2018-09-11 05:25:36.000000+00:00 (UTC)
154,saskylakh,RU,43.53,71,0,14.72,71.97,114.09,2018-09-11 05:25:37.000000+00:00 (UTC)
155,kruisfontein,ZA,57.93,90,0,5.1,-34.0,24.73,2018-09-11 05:25:37.000000+00:00 (UTC)
156,flinders,AU,71.6,49,0,17.22,-34.58,150.85,2018-09-11 04:00:00.000000+00:00 (UTC)
157,papetoai,PF,80.6,65,75,4.7,-17.5,-149.87,2018-09-11 05:00:00.000000+00:00 (UTC)
158,muyezerskiy,RU,50.73,85,0,5.99,63.93,31.65,2018-09-11 05:25:39.000000+00:00 (UTC)
159,kaitangata,NZ,48.84,77,0,9.01,-46.28,169.85,2018-09-11 05:25:40.000000+00:00 (UTC)
160,cabo san lucas,MX,77.0,88,40,10.25,22.89,-109.91,2018-09-11 03:42:00.000000+00:00 (UTC)
161,auki,NG,65.58,93,24,1.41,12.18,6.51,2018-09-11 05:24:43.000000+00:00 (UTC)
162,shitanjing,CN,70.44,27,56,2.98,39.23,106.34,2018-09-11 05:25:41.000000+00:00 (UTC)
163,mount isa,AU,87.8,16,0,8.05,-20.73,139.49,2018-09-11 05:00:00.000000+00:00 (UTC)
164,castro,CL,47.49,97,92,4.99,-42.48,-73.76,2018-09-11 05:22:32.000000+00:00 (UTC)
165,dingle,PH,83.31,80,68,8.79,11.0,122.67,2018-09-11 05:25:42.000000+00:00 (UTC)
166,kidal,ML,76.56,73,0,3.2,18.44,1.41,2018-09-11 05:25:43.000000+00:00 (UTC)
167,nikolskoye,RU,50.0,100,90,11.18,59.7,30.79,2018-09-11 04:30:00.000000+00:00 (UTC)
168,troitsko-pechorsk,RU,49.38,96,76,5.77,62.71,56.19,2018-09-11 05:25:43.000000+00:00 (UTC)
169,rosario,UY,53.7,78,0,11.03,-34.31,-57.35,2018-09-11 05:25:44.000000+00:00 (UTC)
170,powell river,CA,55.4,100,75,3.36,49.84,-124.52,2018-09-11 05:00:00.000000+00:00 (UTC)
171,kutum,SD,75.57,34,0,11.48,14.2,24.66,2018-09-11 05:25:45.000000+00:00 (UTC)
172,sao filipe,CV,77.28,98,88,8.23,14.9,-24.5,2018-09-11 05:24:09.000000+00:00 (UTC)
173,port hardy,CA,55.4,93,75,4.7,50.7,-127.42,2018-09-11 04:17:00.000000+00:00 (UTC)
174,san jeronimo,PE,35.7,100,56,1.74,-13.65,-73.37,2018-09-11 05:25:47.000000+00:00 (UTC)
175,miyako,JP,80.6,57,75,11.41,33.63,130.94,2018-09-11 04:30:00.000000+00:00 (UTC)
176,danilov,RU,54.06,83,68,9.24,58.19,40.17,2018-09-11 05:25:48.000000+00:00 (UTC)
177,havre,US,62.06,36,1,6.93,48.55,-109.68,2018-09-11 04:53:00.000000+00:00 (UTC)
178,mangai,CD,71.79,95,88,2.98,-4.07,19.59,2018-09-11 05:25:49.000000+00:00 (UTC)
179,tosya,TR,53.6,87,75,11.41,41.02,34.04,2018-09-11 04:50:00.000000+00:00 (UTC)
180,thinadhoo,MV,84.84,99,64,9.91,0.53,72.93,2018-09-11 05:25:50.000000+00:00 (UTC)
181,ciudad guayana,VE,73.5,100,24,2.19,8.32,-62.69,2018-09-11 05:25:51.000000+00:00 (UTC)
182,ituiutaba,BR,61.26,50,0,2.75,-18.97,-49.46,2018-09-11 05:25:52.000000+00:00 (UTC)
183,ahuimanu,US,80.96,74,20,9.17,21.44,-157.84,2018-09-11 04:57:00.000000+00:00 (UTC)
184,bartica,GY,75.2,94,20,2.24,6.41,-58.62,2018-09-11 05:00:00.000000+00:00 (UTC)
185,zhigansk,RU,43.71,62,0,5.66,66.77,123.37,2018-09-11 05:25:00.000000+00:00 (UTC)
186,ibra,OM,79.71,67,0,3.65,22.69,58.55,2018-09-11 05:25:54.000000+00:00 (UTC)
187,hovd,NO,51.8,87,0,14.99,63.83,10.7,2018-09-11 04:50:00.000000+00:00 (UTC)
188,jequitinhonha,BR,62.16,94,0,2.98,-16.43,-41.0,2018-09-11 05:25:54.000000+00:00 (UTC)
189,orotukan,RU,48.93,50,56,9.24,62.26,151.67,2018-09-11 05:25:55.000000+00:00 (UTC)
190,umm kaddadah,SD,79.44,34,32,4.54,13.6,26.69,2018-09-11 05:25:55.000000+00:00 (UTC)
191,ust-maya,RU,39.93,80,80,6.44,60.42,134.54,2018-09-11 05:25:56.000000+00:00 (UTC)
192,rosarito,CO,69.8,83,40,4.7,4.91,-75.23,2018-09-11 05:00:00.000000+00:00 (UTC)
193,hirara,JP,84.2,79,75,6.93,24.8,125.28,2018-09-11 04:00:00.000000+00:00 (UTC)
194,port elizabeth,US,69.08,100,90,3.36,39.31,-74.98,2018-09-11 04:56:00.000000+00:00 (UTC)
195,bjornevatn,NO,55.4,87,0,21.92,69.67,29.98,2018-09-11 04:50:00.000000+00:00 (UTC)
196,abu samrah,SY,75.66,48,0,5.1,35.3,37.18,2018-09-11 05:24:08.000000+00:00 (UTC)
197,borogontsy,RU,44.34,73,32,6.22,62.67,131.17,2018-09-11 05:25:59.000000+00:00 (UTC)
198,yuksekova,TR,66.2,37,20,11.41,37.57,44.29,2018-09-11 04:00:00.000000+00:00 (UTC)
199,arman,RU,53.6,87,90,6.71,59.7,150.17,2018-09-11 04:30:00.000000+00:00 (UTC)
200,camacha,PT,71.6,77,40,8.05,33.08,-16.33,2018-09-11 05:00:00.000000+00:00 (UTC)
201,millau,FR,55.4,93,0,1.12,44.1,3.08,2018-09-11 05:00:00.000000+00:00 (UTC)
202,pedernales,EC,71.79,94,92,5.44,0.07,-80.05,2018-09-11 05:26:02.000000+00:00 (UTC)
203,port blair,IN,83.13,98,68,8.57,11.67,92.75,2018-09-11 05:24:43.000000+00:00 (UTC)
204,ambulu,ID,81.51,82,0,11.14,-8.35,113.61,2018-09-11 05:26:03.000000+00:00 (UTC)
205,beringovskiy,RU,53.79,89,36,16.73,63.05,179.32,2018-09-11 05:26:03.000000+00:00 (UTC)
206,ust-omchug,RU,40.74,76,88,5.21,61.13,149.63,2018-09-11 05:26:04.000000+00:00 (UTC)
207,izhmorskiy,RU,44.97,71,32,13.71,56.19,86.64,2018-09-11 05:26:04.000000+00:00 (UTC)
208,bagrami,AF,82.4,11,0,13.87,34.49,69.27,2018-09-11 04:50:00.000000+00:00 (UTC)
209,suntar,RU,49.74,53,0,4.76,62.16,117.65,2018-09-11 05:23:41.000000+00:00 (UTC)
210,kloulklubed,PW,84.2,79,75,17.22,7.04,134.26,2018-09-11 04:50:00.000000+00:00 (UTC)
211,airai,TL,84.48,36,0,2.75,-8.93,125.41,2018-09-11 05:26:06.000000+00:00 (UTC)
212,poum,MK,53.88,76,0,2.19,41.28,20.71,2018-09-11 05:26:07.000000+00:00 (UTC)
213,nome,US,77.0,90,90,4.7,30.04,-94.42,2018-09-11 04:55:00.000000+00:00 (UTC)
214,flin flon,CA,46.77,100,100,5.1,54.77,-101.88,2018-09-11 05:26:08.000000+00:00 (UTC)
215,alice springs,AU,87.8,8,0,11.41,-23.7,133.88,2018-09-11 05:00:00.000000+00:00 (UTC)
216,chicama,PE,62.6,88,48,6.93,-7.84,-79.15,2018-09-11 04:00:00.000000+00:00 (UTC)
217,miedzyrzecz,PL,62.6,72,20,3.36,52.44,15.58,2018-09-11 05:00:00.000000+00:00 (UTC)
218,inhambane,MZ,62.6,77,20,10.47,-23.87,35.38,2018-09-11 04:00:00.000000+00:00 (UTC)
219,kaduna,NG,66.3,99,88,4.32,10.52,7.44,2018-09-11 05:26:10.000000+00:00 (UTC)
220,hongjiang,CN,80.07,56,48,3.53,27.21,109.83,2018-09-11 05:26:11.000000+00:00 (UTC)
221,labuhan,ID,87.81,52,0,6.78,-2.54,115.51,2018-09-11 05:26:11.000000+00:00 (UTC)
222,saint george,GR,66.2,63,0,5.82,39.45,22.34,2018-09-11 04:50:00.000000+00:00 (UTC)
223,rovaniemi,FI,50.0,100,75,8.05,66.5,25.72,2018-09-11 04:50:00.000000+00:00 (UTC)
224,manzhouli,CN,60.27,96,92,18.86,49.6,117.43,2018-09-11 05:26:13.000000+00:00 (UTC)
225,tessalit,ML,70.35,79,8,2.86,20.2,1.01,2018-09-11 05:26:14.000000+00:00 (UTC)
226,kulhudhuffushi,MV,83.58,100,8,8.46,6.62,73.07,2018-09-11 05:26:15.000000+00:00 (UTC)
227,sonoita,US,84.92,38,1,8.05,31.68,-110.66,2018-09-11 04:58:00.000000+00:00 (UTC)
228,maues,BR,75.66,94,0,2.42,-3.38,-57.72,2018-09-11 05:26:16.000000+00:00 (UTC)
229,niagara falls,CA,62.96,90,90,8.05,43.1,-79.12,2018-09-11 05:00:00.000000+00:00 (UTC)
230,tautira,PF,80.6,65,75,4.7,-17.73,-149.15,2018-09-11 05:00:00.000000+00:00 (UTC)
231,tanout,NE,72.33,77,0,5.21,14.97,8.88,2018-09-11 05:26:18.000000+00:00 (UTC)
232,liverpool,GB,57.2,100,75,12.75,53.41,-2.98,2018-09-11 04:50:00.000000+00:00 (UTC)
233,pochutla,MX,81.42,100,0,1.97,15.74,-96.47,2018-09-11 05:26:19.000000+00:00 (UTC)
234,maple creek,CA,58.29,55,68,14.5,49.91,-109.46,2018-09-11 05:26:19.000000+00:00 (UTC)
235,torrington,US,64.94,77,1,5.82,42.06,-104.18,2018-09-11 04:53:00.000000+00:00 (UTC)
236,araguaina,BR,83.13,52,76,5.21,-7.19,-48.21,2018-09-11 05:24:35.000000+00:00 (UTC)
237,salalah,OM,77.0,88,90,3.36,17.01,54.1,2018-09-11 03:50:00.000000+00:00 (UTC)
238,carnarvon,ZA,40.65,29,0,8.68,-30.97,22.13,2018-09-11 05:26:22.000000+00:00 (UTC)
239,matata,NZ,58.02,92,0,12.59,-37.89,176.76,2018-09-11 05:26:22.000000+00:00 (UTC)
240,wahiawa,US,80.96,72,1,12.75,21.5,-158.02,2018-09-11 04:57:00.000000+00:00 (UTC)
241,georgetown,GY,75.2,94,20,2.24,6.8,-58.16,2018-09-11 05:00:00.000000+00:00 (UTC)
242,ambilobe,MG,81.06,56,80,4.43,-13.19,49.05,2018-09-11 05:26:24.000000+00:00 (UTC)
243,makaha,US,80.96,72,1,12.75,21.47,-158.22,2018-09-11 04:57:00.000000+00:00 (UTC)
244,presidencia roque saenz pena,AR,66.21,64,32,10.47,-26.79,-60.44,2018-09-11 05:26:25.000000+00:00 (UTC)
245,puerto narino,CO,75.2,100,0,3.36,-3.77,-70.38,2018-09-11 04:00:00.000000+00:00 (UTC)
246,ayr,GB,55.4,76,75,19.46,55.46,-4.63,2018-09-11 04:50:00.000000+00:00 (UTC)
247,ancud,CL,49.65,98,88,7.56,-41.87,-73.83,2018-09-11 05:26:27.000000+00:00 (UTC)
248,cocobeach,GA,75.2,94,75,4.7,1.01,9.58,2018-09-11 04:30:00.000000+00:00 (UTC)
249,anzoategui,CO,58.47,96,20,1.41,4.63,-75.1,2018-09-11 05:26:28.000000+00:00 (UTC)
250,homer,US,51.08,85,1,4.7,59.64,-151.54,2018-09-11 04:53:00.000000+00:00 (UTC)
251,frunze,UA,60.63,100,80,8.79,46.83,29.88,2018-09-11 05:26:29.000000+00:00 (UTC)
252,muroto,JP,80.6,65,75,10.29,33.37,134.14,2018-09-11 04:00:00.000000+00:00 (UTC)
253,broome,GB,61.7,82,0,16.11,52.47,1.45,2018-09-11 04:56:00.000000+00:00 (UTC)
254,tezu,IN,64.68,100,92,1.41,27.93,96.16,2018-09-11 05:26:31.000000+00:00 (UTC)
255,nanortalik,GL,40.11,97,92,19.86,60.14,-45.24,2018-09-11 05:22:27.000000+00:00 (UTC)
256,el sauzal,AR,64.4,55,0,4.7,-24.3,-64.96,2018-09-11 04:00:00.000000+00:00 (UTC)
257,maumere,ID,87.09,85,0,9.8,-8.63,122.22,2018-09-11 05:26:32.000000+00:00 (UTC)
258,sumenep,ID,83.76,87,0,10.58,-7.02,113.87,2018-09-11 05:26:32.000000+00:00 (UTC)
259,port lincoln,AU,55.86,100,76,25.46,-34.72,135.86,2018-09-11 05:22:05.000000+00:00 (UTC)
260,korem,ET,74.49,40,0,2.19,12.51,39.52,2018-09-11 05:26:33.000000+00:00 (UTC)
261,jalu,LY,76.38,47,0,7.23,29.03,21.55,2018-09-11 05:26:33.000000+00:00 (UTC)
262,mattru,SL,72.78,100,92,2.53,7.62,-11.83,2018-09-11 05:26:34.000000+00:00 (UTC)
263,lathrop,US,77.0,47,1,6.93,37.82,-121.28,2018-09-11 04:55:00.000000+00:00 (UTC)
264,fort nelson,CA,46.4,81,75,2.24,58.81,-122.69,2018-09-11 05:00:00.000000+00:00 (UTC)
265,lucapa,AO,69.54,92,8,2.98,-8.42,20.74,2018-09-11 05:26:35.000000+00:00 (UTC)
266,caucaia,BR,78.8,83,40,16.11,-3.73,-38.66,2018-09-11 05:00:00.000000+00:00 (UTC)
267,kralendijk,BQ,82.4,83,0,12.75,12.15,-68.27,2018-09-11 04:55:00.000000+00:00 (UTC)
268,provideniya,RU,50.0,93,90,8.95,64.42,-173.23,2018-09-11 04:30:00.000000+00:00 (UTC)
269,nizwa,OM,83.31,56,0,3.76,22.93,57.53,2018-09-11 05:26:37.000000+00:00 (UTC)
270,dunedin,NZ,48.21,77,0,8.46,-45.87,170.5,2018-09-11 05:26:15.000000+00:00 (UTC)
271,grenfell,AU,68.55,65,0,10.8,-33.9,148.16,2018-09-11 05:26:37.000000+00:00 (UTC)
272,fortuna,ES,73.4,69,20,3.36,38.18,-1.13,2018-09-11 05:00:00.000000+00:00 (UTC)
273,rio grande,BR,56.49,97,0,11.48,-32.03,-52.1,2018-09-11 05:22:52.000000+00:00 (UTC)
274,nyrob,RU,49.2,95,64,9.01,60.74,56.73,2018-09-11 05:26:39.000000+00:00 (UTC)
275,erzin,TR,71.6,73,0,4.7,36.95,36.2,2018-09-11 04:50:00.000000+00:00 (UTC)
276,monywa,MM,82.59,82,64,9.8,22.12,95.13,2018-09-11 05:26:41.000000+00:00 (UTC)
277,pierre,US,69.08,86,1,12.75,44.37,-100.35,2018-09-11 04:53:00.000000+00:00 (UTC)
278,acopiara,BR,74.4,50,56,1.07,-6.09,-39.45,2018-09-11 05:26:42.000000+00:00 (UTC)
279,pangnirtung,CA,35.16,100,88,19.75,66.15,-65.72,2018-09-11 05:26:42.000000+00:00 (UTC)
280,kokoda,PG,64.59,98,92,1.63,-8.88,147.74,2018-09-11 05:26:43.000000+00:00 (UTC)
281,berberati,CF,69.8,94,20,11.41,4.26,15.79,2018-09-11 05:00:00.000000+00:00 (UTC)
282,turbat,PK,81.42,69,0,4.65,26.0,63.05,2018-09-11 05:26:44.000000+00:00 (UTC)
283,manokwari,ID,81.96,100,12,3.53,-0.87,134.08,2018-09-11 05:26:44.000000+00:00 (UTC)
284,cairns,AU,82.4,45,40,19.46,-16.92,145.77,2018-09-11 05:00:00.000000+00:00 (UTC)
285,padang,ID,82.41,100,44,5.66,-0.92,100.36,2018-09-11 05:22:20.000000+00:00 (UTC)
286,comodoro rivadavia,AR,57.2,35,0,9.17,-45.87,-67.48,2018-09-11 04:00:00.000000+00:00 (UTC)
287,brae,GB,53.6,87,40,3.36,60.4,-1.35,2018-09-11 04:50:00.000000+00:00 (UTC)
288,itoman,JP,87.8,72,20,10.29,26.12,127.67,2018-09-11 04:56:00.000000+00:00 (UTC)
289,codrington,AU,64.68,79,56,3.76,-28.95,153.24,2018-09-11 05:26:47.000000+00:00 (UTC)
290,karibib,NA,48.57,74,0,2.98,-21.94,15.86,2018-09-11 05:26:48.000000+00:00 (UTC)
291,vestmanna,FO,48.2,100,88,4.7,62.16,-7.17,2018-09-11 04:50:00.000000+00:00 (UTC)
292,muros,ES,55.4,100,0,5.44,42.77,-9.06,2018-09-11 05:00:00.000000+00:00 (UTC)
293,huilong,CN,79.53,45,36,2.98,28.89,110.18,2018-09-11 05:26:49.000000+00:00 (UTC)
294,pevek,RU,53.43,83,80,15.5,69.7,170.27,2018-09-11 05:23:56.000000+00:00 (UTC)
295,benito juarez,MX,84.93,62,36,4.21,28.64,-111.57,2018-09-11 05:26:49.000000+00:00 (UTC)
296,kencong,ID,90.78,44,12,8.34,-7.78,112.24,2018-09-11 05:26:51.000000+00:00 (UTC)
297,houma,CN,77.28,44,44,4.21,35.63,111.36,2018-09-11 05:26:51.000000+00:00 (UTC)
298,vestmannaeyjar,IS,44.52,100,44,7.45,63.44,-20.27,2018-09-11 05:26:52.000000+00:00 (UTC)
299,menongue,AO,57.66,23,0,5.1,-14.66,17.68,2018-09-11 05:23:20.000000+00:00 (UTC)
300,buchanan,LR,75.2,94,75,3.65,5.88,-10.05,2018-09-11 05:00:00.000000+00:00 (UTC)
301,bonnyville,CA,46.4,100,90,4.21,54.27,-110.74,2018-09-11 05:00:00.000000+00:00 (UTC)
302,casablanca,MA,66.2,100,75,3.36,33.6,-7.62,2018-09-11 05:00:00.000000+00:00 (UTC)
303,ippy,CF,68.91,100,64,4.54,6.26,21.2,2018-09-11 05:26:54.000000+00:00 (UTC)
304,carauari,BR,75.03,94,8,2.53,-4.88,-66.9,2018-09-11 05:26:54.000000+00:00 (UTC)
305,katherine,AU,95.0,5,0,8.05,-14.47,132.26,2018-09-11 05:00:00.000000+00:00 (UTC)
306,mto wa mbu,TZ,63.33,100,68,6.44,-3.38,35.86,2018-09-11 05:26:55.000000+00:00 (UTC)
307,erenhot,CN,71.43,30,0,24.34,43.65,111.97,2018-09-11 05:26:56.000000+00:00 (UTC)
308,gizo,IL,78.8,69,20,3.36,31.8,34.94,2018-09-11 04:50:00.000000+00:00 (UTC)
309,felipe carrillo puerto,MX,75.3,97,92,6.67,19.58,-88.05,2018-09-11 05:26:57.000000+00:00 (UTC)
310,san cristobal,EC,50.0,71,75,10.29,-0.39,-78.55,2018-09-11 05:00:00.000000+00:00 (UTC)
311,bereda,ES,53.6,100,90,2.19,43.27,-7.54,2018-09-11 05:00:00.000000+00:00 (UTC)
312,aykhal,RU,43.44,69,0,8.23,65.95,111.51,2018-09-11 05:26:59.000000+00:00 (UTC)
313,hoquiam,US,59.0,96,90,4.7,46.98,-123.89,2018-09-11 04:57:00.000000+00:00 (UTC)
314,raduzhnyy,RU,41.01,84,0,12.26,62.1,77.47,2018-09-11 05:27:00.000000+00:00 (UTC)
315,atasu,KZ,54.24,65,56,11.7,48.68,71.64,2018-09-11 05:27:00.000000+00:00 (UTC)
316,gouyave,GD,78.8,88,20,11.81,12.16,-61.73,2018-09-11 05:00:00.000000+00:00 (UTC)
317,teknaf,BD,82.59,86,64,3.31,20.86,92.31,2018-09-11 05:27:02.000000+00:00 (UTC)
318,hasaki,JP,75.2,69,75,18.34,35.73,140.83,2018-09-11 04:30:00.000000+00:00 (UTC)
319,sobolevo,RU,60.63,78,88,6.11,54.43,31.9,2018-09-11 05:27:02.000000+00:00 (UTC)
320,careiro da varzea,BR,78.8,78,0,2.24,-3.2,-59.81,2018-09-11 05:00:00.000000+00:00 (UTC)
321,fort-shevchenko,KZ,73.41,64,80,9.8,44.51,50.26,2018-09-11 05:23:52.000000+00:00 (UTC)
322,faanui,PF,79.26,100,8,10.92,-16.48,-151.75,2018-09-11 05:27:04.000000+00:00 (UTC)
323,aldama,MX,78.36,100,80,4.43,22.92,-98.09,2018-09-11 05:27:05.000000+00:00 (UTC)
324,caconda,AO,52.08,34,0,6.33,-13.73,15.06,2018-09-11 05:27:05.000000+00:00 (UTC)
325,udachnyy,RU,45.51,60,8,5.1,66.42,112.4,2018-09-11 05:27:06.000000+00:00 (UTC)
326,katobu,ID,89.52,63,44,5.66,-4.94,122.53,2018-09-11 05:23:34.000000+00:00 (UTC)
327,ostrovnoy,RU,50.91,85,8,13.71,68.05,39.51,2018-09-11 05:27:07.000000+00:00 (UTC)
328,ziro,IN,75.2,100,90,4.7,27.54,93.82,2018-09-11 04:30:00.000000+00:00 (UTC)
329,soderhamn,SE,52.62,96,80,7.0,61.3,17.06,2018-09-11 05:27:08.000000+00:00 (UTC)
330,winneba,GH,77.0,94,90,6.93,5.35,-0.62,2018-09-11 05:00:00.000000+00:00 (UTC)
331,mount gambier,AU,64.23,52,92,15.28,-37.83,140.78,2018-09-11 05:27:08.000000+00:00 (UTC)
332,ust-tsilma,RU,50.82,86,0,5.99,65.44,52.15,2018-09-11 05:27:09.000000+00:00 (UTC)
333,matay,EG,78.63,56,0,8.79,28.42,30.79,2018-09-11 05:27:10.000000+00:00 (UTC)
334,fukue,JP,82.4,54,75,2.24,35.03,136.69,2018-09-11 04:46:00.000000+00:00 (UTC)
335,raudeberg,NO,53.6,87,75,14.99,61.99,5.14,2018-09-11 04:50:00.000000+00:00 (UTC)
336,puquio,PE,28.59,66,0,4.76,-14.69,-74.12,2018-09-11 05:27:11.000000+00:00 (UTC)
337,derzhavinsk,KZ,56.31,53,0,6.22,51.1,66.31,2018-09-11 05:27:12.000000+00:00 (UTC)
338,akure,NG,72.06,97,88,3.65,7.25,5.19,2018-09-11 05:27:12.000000+00:00 (UTC)
339,kalmunai,LK,86.64,81,0,3.2,7.42,81.82,2018-09-11 05:27:13.000000+00:00 (UTC)
340,monrovia,LR,75.2,94,75,3.76,6.33,-10.8,2018-09-11 05:00:00.000000+00:00 (UTC)
341,tahlequah,US,64.94,93,1,4.21,35.92,-94.97,2018-09-11 04:56:00.000000+00:00 (UTC)
342,marquette,US,57.02,91,1,5.82,46.54,-87.4,2018-09-11 05:18:00.000000+00:00 (UTC)
343,sanawad,IN,81.69,84,36,9.8,22.17,76.08,2018-09-11 05:27:15.000000+00:00 (UTC)
344,coahuayana,MX,67.83,100,88,1.41,18.62,-100.35,2018-09-11 05:27:15.000000+00:00 (UTC)
345,coquimbo,CL,51.8,93,90,2.24,-29.95,-71.34,2018-09-11 04:00:00.000000+00:00 (UTC)
346,batagay-alyta,RU,34.71,75,0,3.76,67.8,130.41,2018-09-11 05:27:16.000000+00:00 (UTC)
347,beloha,MG,67.83,95,20,12.48,-25.17,45.06,2018-09-11 05:27:17.000000+00:00 (UTC)
348,bireun,ID,79.44,100,68,4.99,5.2,96.7,2018-09-11 05:27:18.000000+00:00 (UTC)
349,petropavlovsk-kamchatskiy,RU,57.2,54,40,15.66,53.05,158.65,2018-09-11 04:30:00.000000+00:00 (UTC)
350,hamilton,CA,62.6,100,90,3.36,43.26,-79.87,2018-09-11 05:00:00.000000+00:00 (UTC)
351,xiaoweizhai,CN,66.12,92,92,3.42,26.23,107.51,2018-09-11 05:27:20.000000+00:00 (UTC)
352,zeya,RU,52.89,80,92,2.98,53.74,127.27,2018-09-11 05:27:20.000000+00:00 (UTC)
353,la peca,PE,63.06,98,64,0.74,-5.61,-78.44,2018-09-11 05:27:21.000000+00:00 (UTC)
354,maraa,BR,75.21,94,20,2.86,-1.83,-65.37,2018-09-11 05:27:21.000000+00:00 (UTC)
355,zlitan,LY,74.94,95,0,2.98,32.47,14.57,2018-09-11 05:27:22.000000+00:00 (UTC)
356,caravelas,BR,73.86,100,56,9.13,-17.73,-39.27,2018-09-11 05:24:45.000000+00:00 (UTC)
357,ereymentau,KZ,50.19,50,0,9.35,51.62,73.1,2018-09-11 05:27:23.000000+00:00 (UTC)
358,gamba,CN,44.61,88,12,2.75,28.28,88.52,2018-09-11 05:27:23.000000+00:00 (UTC)
359,abaete,BR,60.36,62,8,4.76,-19.16,-45.45,2018-09-11 05:27:24.000000+00:00 (UTC)
360,todos santos,MX,82.4,88,40,9.8,23.45,-110.23,2018-09-11 04:42:00.000000+00:00 (UTC)
361,cherskiy,RU,57.75,47,76,7.67,68.75,161.3,2018-09-11 05:27:25.000000+00:00 (UTC)
362,baruun-urt,MN,65.31,53,0,25.12,46.68,113.28,2018-09-11 05:27:25.000000+00:00 (UTC)
363,metro,ID,85.74,80,12,7.0,-5.11,105.31,2018-09-11 05:27:26.000000+00:00 (UTC)
364,taltal,CL,49.11,91,0,1.19,-25.41,-70.49,2018-09-11 05:27:26.000000+00:00 (UTC)
365,ojinaga,US,61.62,71,0,3.2,29.56,-104.41,2018-09-11 05:27:27.000000+00:00 (UTC)
366,marienburg,DE,62.6,72,75,8.05,52.12,9.98,2018-09-11 04:50:00.000000+00:00 (UTC)
367,kavaratti,IN,81.51,100,56,9.57,10.57,72.64,2018-09-11 05:27:28.000000+00:00 (UTC)
368,bathsheba,BB,82.4,74,40,13.87,13.22,-59.52,2018-09-11 05:00:00.000000+00:00 (UTC)
369,beyneu,KZ,76.65,26,0,7.45,45.32,55.19,2018-09-11 05:27:29.000000+00:00 (UTC)
370,algiers,US,78.98,100,1,5.66,29.94,-90.04,2018-09-11 05:15:00.000000+00:00 (UTC)
371,lazarev,RU,62.16,67,12,10.8,52.23,141.51,2018-09-11 05:27:30.000000+00:00 (UTC)
372,gusau,NG,65.58,93,24,1.41,12.17,6.66,2018-09-11 05:27:00.000000+00:00 (UTC)
373,oume,CI,73.4,100,75,4.7,6.38,-5.42,2018-09-11 05:00:00.000000+00:00 (UTC)
374,aklavik,CA,30.2,74,90,6.93,68.22,-135.01,2018-09-11 05:00:00.000000+00:00 (UTC)
375,romny,UA,64.41,91,8,8.34,50.74,33.49,2018-09-11 05:27:32.000000+00:00 (UTC)
376,paamiut,GL,39.03,100,92,15.5,61.99,-49.67,2018-09-11 05:27:33.000000+00:00 (UTC)
377,bandarbeyla,SO,73.59,79,0,21.88,9.49,50.81,2018-09-11 05:27:33.000000+00:00 (UTC)
378,portales,US,65.12,93,1,5.82,34.19,-103.33,2018-09-11 04:56:00.000000+00:00 (UTC)
379,broken hill,AU,76.74,30,0,22.77,-31.97,141.45,2018-09-11 05:27:35.000000+00:00 (UTC)
380,lewistown,US,57.92,94,1,2.3,40.39,-90.15,2018-09-11 05:15:00.000000+00:00 (UTC)
381,benghazi,LY,79.8,100,0,9.8,32.12,20.07,2018-09-11 05:27:36.000000+00:00 (UTC)
382,deniliquin,AU,71.52,66,0,13.49,-35.53,144.96,2018-09-11 05:27:36.000000+00:00 (UTC)
383,yukhnov,RU,65.94,52,36,6.33,54.74,35.23,2018-09-11 05:27:37.000000+00:00 (UTC)
384,ulladulla,AU,71.6,49,0,17.22,-35.36,150.48,2018-09-11 04:00:00.000000+00:00 (UTC)
385,kemin,KG,62.88,43,68,2.42,42.79,75.7,2018-09-11 05:27:38.000000+00:00 (UTC)
386,bohodukhiv,UA,62.6,55,0,11.18,50.16,35.52,2018-09-11 05:00:00.000000+00:00 (UTC)
387,abu dhabi,AE,91.4,41,0,16.11,24.47,54.37,2018-09-11 04:27:00.000000+00:00 (UTC)
388,baykit,RU,50.37,87,92,9.13,61.68,96.39,2018-09-11 05:27:39.000000+00:00 (UTC)
389,teya,MX,75.2,94,5,6.93,21.05,-89.07,2018-09-11 04:48:00.000000+00:00 (UTC)
390,erdaojiang,CN,68.46,64,44,4.21,41.78,126.03,2018-09-11 05:27:40.000000+00:00 (UTC)
391,ixtapa,MX,80.6,100,75,0.51,20.71,-105.21,2018-09-11 04:43:00.000000+00:00 (UTC)
392,lima,PE,55.41,72,44,2.42,-12.06,-77.04,2018-09-11 05:27:41.000000+00:00 (UTC)
393,benavente,PT,71.6,56,0,6.93,38.98,-8.82,2018-09-11 05:00:00.000000+00:00 (UTC)
394,acari,BR,67.74,84,0,11.81,-6.44,-36.64,2018-09-11 05:27:15.000000+00:00 (UTC)
395,ivdel,RU,53.07,73,20,8.12,60.7,60.42,2018-09-11 05:27:43.000000+00:00 (UTC)
396,phibun mangsahan,TH,87.8,66,75,5.82,15.24,105.23,2018-09-11 05:00:00.000000+00:00 (UTC)
397,kamennogorsk,RU,53.6,93,90,5.82,60.95,29.13,2018-09-11 04:50:00.000000+00:00 (UTC)
398,santa teresa,VE,78.8,83,40,1.12,10.26,-66.69,2018-09-11 05:00:00.000000+00:00 (UTC)
399,bajram curri,AL,69.8,46,0,8.05,42.36,20.08,2018-09-11 05:00:00.000000+00:00 (UTC)
400,ranong,TH,86.0,79,40,9.17,9.96,98.62,2018-09-11 05:00:00.000000+00:00 (UTC)
401,parrita,CR,66.2,93,0,3.36,9.52,-84.33,2018-09-11 05:00:00.000000+00:00 (UTC)
402,gornopravdinsk,RU,46.32,64,20,6.67,60.06,69.92,2018-09-11 05:27:46.000000+00:00 (UTC)
403,jardim,BR,67.11,50,0,7.45,-21.48,-56.15,2018-09-11 05:27:47.000000+00:00 (UTC)
404,zemio,CF,67.74,100,88,3.65,5.02,25.13,2018-09-11 05:27:48.000000+00:00 (UTC)
405,roswell,US,69.98,73,1,5.82,33.39,-104.52,2018-09-11 04:55:00.000000+00:00 (UTC)
406,taraz,KZ,68.0,32,0,4.47,42.89,71.39,2018-09-11 04:30:00.000000+00:00 (UTC)
407,montepuez,MZ,70.35,71,68,12.37,-13.13,39.0,2018-09-11 05:27:49.000000+00:00 (UTC)
408,wakkanai,JP,62.6,67,20,9.17,45.41,141.67,2018-09-11 04:00:00.000000+00:00 (UTC)
409,takapau,NZ,48.39,76,88,10.25,-40.02,176.35,2018-09-11 05:27:50.000000+00:00 (UTC)
410,asmar,AF,83.04,36,0,2.64,35.03,71.36,2018-09-11 05:27:51.000000+00:00 (UTC)
411,puerto boyaca,CO,75.93,86,20,2.42,5.98,-74.59,2018-09-11 05:27:51.000000+00:00 (UTC)
412,busayra,JO,72.96,68,0,2.53,30.74,35.61,2018-09-11 05:27:52.000000+00:00 (UTC)
413,kiruna,SE,51.8,93,90,9.17,67.86,20.23,2018-09-11 04:50:00.000000+00:00 (UTC)
414,waynesville,US,60.62,93,1,2.19,37.83,-92.2,2018-09-11 04:56:00.000000+00:00 (UTC)
415,verkhnyaya inta,RU,43.98,91,88,7.11,65.99,60.32,2018-09-11 05:27:53.000000+00:00 (UTC)
416,san francisco del mar,MX,83.31,95,56,5.66,16.34,-94.51,2018-09-11 05:27:53.000000+00:00 (UTC)
417,palmer,AU,62.6,51,75,23.04,-34.85,139.16,2018-09-11 05:00:00.000000+00:00 (UTC)
418,college,US,51.98,74,1,2.98,64.86,-147.8,2018-09-11 04:58:00.000000+00:00 (UTC)
419,ligayan,PH,84.21,100,12,12.26,4.65,119.47,2018-09-11 05:27:55.000000+00:00 (UTC)
420,pundaguitan,PH,86.37,92,24,5.88,6.37,126.17,2018-09-11 05:27:55.000000+00:00 (UTC)
421,ambon,FR,50.0,100,90,2.24,47.55,-2.56,2018-09-11 05:00:00.000000+00:00 (UTC)
422,honningsvag,NO,55.4,76,20,11.59,70.98,25.97,2018-09-11 04:50:00.000000+00:00 (UTC)
423,horsham,AU,68.82,59,36,21.65,-36.71,142.2,2018-09-11 05:27:13.000000+00:00 (UTC)
424,kasongo-lunda,CD,67.83,96,12,3.2,-6.48,16.82,2018-09-11 05:27:57.000000+00:00 (UTC)
425,nelson bay,AU,69.8,56,0,12.75,-32.72,152.14,2018-09-11 05:00:00.000000+00:00 (UTC)
426,malazgirt,TR,57.2,62,40,2.24,39.15,42.54,2018-09-11 04:50:00.000000+00:00 (UTC)
427,patu,BR,75.48,65,0,11.03,-6.1,-37.64,2018-09-11 05:27:59.000000+00:00 (UTC)
428,ketchikan,US,55.04,92,20,1.19,55.34,-131.65,2018-09-11 04:56:00.000000+00:00 (UTC)
429,sheridan,US,73.04,31,20,17.22,39.65,-105.03,2018-09-11 04:58:00.000000+00:00 (UTC)
430,okhotsk,RU,48.66,100,76,4.65,59.36,143.24,2018-09-11 05:28:00.000000+00:00 (UTC)
431,santa rita do passa quatro,BR,61.71,65,0,7.67,-21.71,-47.48,2018-09-11 05:28:00.000000+00:00 (UTC)
432,eyl,SO,80.7,72,0,20.65,7.98,49.82,2018-09-11 05:28:01.000000+00:00 (UTC)
433,hualmay,PE,52.44,90,32,4.76,-11.1,-77.61,2018-09-11 05:24:40.000000+00:00 (UTC)
434,pucallpa,PE,78.8,88,40,1.63,-8.38,-74.54,2018-09-11 05:00:00.000000+00:00 (UTC)
435,olinda,EC,71.6,83,75,11.41,-2.03,-79.75,2018-09-11 05:00:00.000000+00:00 (UTC)
436,arawa,NG,73.41,98,100,3.42,7.05,3.9,2018-09-11 05:28:03.000000+00:00 (UTC)
437,pamyat parizhskoy kommuny,RU,53.6,76,20,4.47,56.1,44.5,2018-09-11 04:30:00.000000+00:00 (UTC)
438,boa vista,BR,72.33,94,24,4.21,2.82,-60.67,2018-09-11 05:28:05.000000+00:00 (UTC)
439,aksha,RU,60.0,90,8,2.19,50.28,113.29,2018-09-11 05:28:05.000000+00:00 (UTC)
440,atar,MR,81.69,40,20,4.21,20.52,-13.05,2018-09-11 05:28:06.000000+00:00 (UTC)
441,nara,JP,80.6,61,75,9.17,34.68,135.8,2018-09-11 04:30:00.000000+00:00 (UTC)
442,berdigestyakh,RU,45.42,57,0,6.67,62.1,126.7,2018-09-11 05:28:06.000000+00:00 (UTC)
443,simi valley,US,73.04,78,90,1.97,34.27,-118.78,2018-09-11 05:09:00.000000+00:00 (UTC)
444,saint-augustin,FR,57.2,93,0,2.42,44.83,-0.61,2018-09-11 05:00:00.000000+00:00 (UTC)
445,qaqortoq,GL,41.0,97,48,13.87,60.72,-46.03,2018-09-11 04:50:00.000000+00:00 (UTC)
446,dangriga,BZ,80.7,96,8,2.19,16.97,-88.23,2018-09-11 05:26:13.000000+00:00 (UTC)
447,mehran,IR,78.8,24,0,2.24,33.12,46.17,2018-09-11 04:30:00.000000+00:00 (UTC)
448,sheltozero,RU,54.06,100,88,10.47,61.37,35.37,2018-09-11 05:28:09.000000+00:00 (UTC)
449,mitzic,GA,71.34,97,92,2.75,0.78,11.55,2018-09-11 05:28:09.000000+00:00 (UTC)
450,san jose,PH,83.13,83,32,3.2,15.79,120.99,2018-09-11 05:28:11.000000+00:00 (UTC)
451,mildura,AU,75.84,43,0,21.09,-34.18,142.16,2018-09-11 05:25:15.000000+00:00 (UTC)
452,port macquarie,AU,68.0,60,0,14.99,-31.43,152.91,2018-09-11 05:00:00.000000+00:00 (UTC)
453,washougal,US,64.04,77,75,2.53,45.58,-122.35,2018-09-11 04:53:00.000000+00:00 (UTC)
454,riyadh,SA,86.0,33,0,4.65,24.63,46.72,2018-09-11 04:00:00.000000+00:00 (UTC)
455,bilma,NE,80.43,26,88,3.2,18.69,12.92,2018-09-11 05:28:14.000000+00:00 (UTC)
456,licata,IT,69.8,88,0,4.7,37.11,13.95,2018-09-11 05:00:00.000000+00:00 (UTC)
457,burnie,AU,57.03,88,8,16.06,-41.05,145.91,2018-09-11 05:24:19.000000+00:00 (UTC)
458,zhigalovo,RU,57.48,68,56,5.21,54.81,105.15,2018-09-11 05:28:15.000000+00:00 (UTC)
459,chifeng,CN,66.66,63,20,13.27,42.27,118.96,2018-09-11 05:28:16.000000+00:00 (UTC)
460,san buenaventura,MX,66.75,99,100,2.86,27.06,-101.55,2018-09-11 05:28:16.000000+00:00 (UTC)
461,miraflores,CO,45.69,100,80,1.3,5.2,-73.14,2018-09-11 05:28:17.000000+00:00 (UTC)
462,portoferraio,IT,69.8,64,5,10.58,42.81,10.31,2018-09-11 04:55:00.000000+00:00 (UTC)
463,dehloran,IR,94.47,23,0,4.43,32.69,47.27,2018-09-11 05:28:18.000000+00:00 (UTC)
464,lakatoro,VU,76.38,82,76,9.8,-16.11,167.42,2018-09-11 05:23:39.000000+00:00 (UTC)
465,husavik,CA,54.51,86,0,6.33,50.56,-96.99,2018-09-11 05:24:47.000000+00:00 (UTC)
466,sokoni,CD,68.37,56,0,8.23,-12.89,28.78,2018-09-11 05:28:19.000000+00:00 (UTC)
467,kijang,KR,75.2,57,75,20.8,35.24,129.21,2018-09-11 05:00:00.000000+00:00 (UTC)
468,sistranda,NO,51.8,87,40,12.75,63.73,8.83,2018-09-11 04:50:00.000000+00:00 (UTC)
469,zunyi,CN,61.89,100,100,5.44,27.73,106.92,2018-09-11 05:28:20.000000+00:00 (UTC)
470,xinmin,CN,77.0,50,0,8.95,42.0,122.83,2018-09-11 04:30:00.000000+00:00 (UTC)
471,seybaplaya,MX,75.2,94,90,9.46,19.65,-90.67,2018-09-11 05:11:00.000000+00:00 (UTC)
472,ploemeur,FR,60.8,100,90,6.78,47.73,-3.43,2018-09-11 05:00:00.000000+00:00 (UTC)
473,gibara,CU,77.0,94,5,5.82,21.11,-76.13,2018-09-11 04:50:00.000000+00:00 (UTC)
474,zyryanka,RU,51.99,53,68,7.23,65.73,150.89,2018-09-11 05:28:24.000000+00:00 (UTC)
475,viedma,AR,52.26,86,76,12.71,-40.81,-62.99,2018-09-11 05:23:53.000000+00:00 (UTC)
476,trairi,BR,79.26,98,0,26.57,-3.28,-39.27,2018-09-11 05:25:39.000000+00:00 (UTC)
477,kasempa,ZM,69.0,54,24,9.24,-13.46,25.83,2018-09-11 05:28:25.000000+00:00 (UTC)
478,mitu,IR,77.55,25,0,2.86,36.2,46.09,2018-09-11 05:28:26.000000+00:00 (UTC)
479,saint-francois,FR,51.8,93,0,2.75,46.42,3.91,2018-09-11 05:00:00.000000+00:00 (UTC)
480,tumut,AU,62.16,66,0,4.76,-35.3,148.22,2018-09-11 05:28:27.000000+00:00 (UTC)
481,serebriya,UA,58.38,96,88,12.03,48.46,27.72,2018-09-11 05:28:27.000000+00:00 (UTC)
482,te anau,NZ,49.83,82,8,2.42,-45.41,167.72,2018-09-11 05:24:21.000000+00:00 (UTC)
483,kuopio,FI,53.6,100,90,11.41,62.89,27.68,2018-09-11 04:50:00.000000+00:00 (UTC)
